{
    "discoveries": [
        {
            "name": "Amazon BTS2",
            "id": "0001",
            "lat": 48.277600,
            "lng": 17.708850,
            "country": "Slovakia",
            "region": "926 01 Sereď",
            "category": "warehouse",
            "description": "Amazon BTS2 is the central fulfilment centre that processes all returns from Europe. This is the centralised location where all trackers meet. It was built in 2017 in the Slovakian city of Sereď and covers an area of around 60.000m2.",
            "image": "https://lh3.googleusercontent.com/p/AF1QipNFU5B1LfxKy1f1cgEAw8IebsR3V8miNsLKFWaa=s0"
        },
        {
            "name": "Amazon CGN1",
            "id": "0002",
            "lat": "50.347778",
            "lng": "7.486117",
            "country": "Germany",
            "region": "56330 Kobern-Gondorf",
            "category": "warehouse",
            "description": "",
            "image": "https://lh3.googleusercontent.com/p/AF1QipOA4ApSh08xl4PjtqhUkxFaby-Bq2rHJsQjd2H1=s0"
        },
        {
            "name": "Amazon DTM8",
            "id": "0003",
            "lat": 51.3253668,
            "lng": 6.6934955,
            "country": "Germany",
            "region": "47809 Krefeld",
            "category": "warehouse",
            "description": "",
            "image": "https://lh3.googleusercontent.com/p/AF1QipMi4O8nJEzoFNRqr7E6S3rbwcVEfkj47KE4kqIM=s0"
        },
        {
            "name": "Amazon KSF7",
            "id": "0004",
            "lat": 51.4031014,
            "lng": 9.1952357,
            "country": "Germany",
            "region": "34466 Wolfhagen",
            "category": "warehouse",
            "description": "",
            "image": "https://lh3.googleusercontent.com/p/AF1QipPQgVk1_hXl-Y_5mpcsF8-wXWSNDgkuHIxveBVf=s0"
        },
        {
            "name": "Amazon KTW1",
            "id": "0005",
            "lat": 50.2557612,
            "lng": 19.2008243,
            "country": "Poland",
            "region": "41-208 Sosnowiec",
            "category": "warehouse",
            "description": "",
            "image": "https://lh3.googleusercontent.com/p/AF1QipO3BnsUVmKd9G6wSyXxGVX9kRJzJxijIBIFFw-Q=s0"
        },
        {
            "name": "Amazon LYS8",
            "id": "0006",
            "lat": 45.675167,
            "lng": 5.103233,
            "country": "France",
            "region": "38290 Satolas-et-Bonce",
            "category": "warehouse",
            "description": "",
            "image": "https://lh3.googleusercontent.com/p/AF1QipOdYOljSQ26TGLZnTy6TGLZkaPclfZ2hyMQRqW8=s0"
        },
        {
            "name": "Amazon STR1",
            "id": "0007",
            "lat": "48.924362",
            "lng": "8.724218",
            "country": "Germany",
            "region": "75177 Pforzheim",
            "category": "warehouse",
            "description": "",
            "image": "https://lh3.googleusercontent.com/p/AF1QipMc-OboEsu52NQKgNWiyaRUN5lL16ulF7WEEZiv=s0"
        },
        {
            "name": "CEVA Logistics",
            "id": "0008",
            "lat": "52.3491899",
            "lng": "16.7994325",
            "country": "Poland",
            "region": "62-052 Komorniki",
            "category": "warehouse",
            "description": "",
            "image": "https://i.imgur.com/kGJmX9z.png"
        },
        {
            "name": "Relais Colis",
            "id": "0009",
            "lat": "48.648167",
            "lng": "2.557667",
            "country": "France",
            "region": "77380 Combs-la-Ville",
            "category": "warehouse",
            "description": "",
            "image": "https://lh3.googleusercontent.com/p/AF1QipNlMiyA20ob_SjbIjBuOPmwj5FNH24q7nHeXq7j=s0"
        },
        {
            "name": "# KL LOGISTIC spol. s r.o.",
            "id": "0010",
            "lat": "48.210395",
            "lng": "17.731644",
            "country": "Slovakia",
            "region": "924 01 Galanta",
            "category": "#logistics-service",
            "description": "",
            "image": "https://lh3.googleusercontent.com/p/AF1QipNpmsXQ8XISmwoVsqGXCp-ZmRmcaTj-xlkM_JzJ=s0"
        },
        {
            "name": "Briefzentrum Köln-Ost",
            "id": "",
            "lat": "50.910033",
            "lng": "7.047233",
            "country": "Germany",
            "region": "51149 Cologne",
            "category": "#sorting-and-distribution",
            "description": "",
            "image": "https://i.imgur.com/pKpcPPD.jpeg"
        },
        {
            "name": "DHL Delivery Köln West GmbH",
            "id": "",
            "lat": "50.948583",
            "lng": "6.906350",
            "country": "Germany",
            "region": "50825 Cologne ",
            "category": "#sorting-and-distribution ",
            "description": "",
            "image": "https://lh3.googleusercontent.com/p/AF1QipMEX93BpR_hUL7ctt365EWMvdvtBCFK7kIpt-OY=s0"
        },
        {
            "name": "DHL Depot Rüdersdorf",
            "id": "",
            "lat": "52.4856833",
            "lng": "13.775378",
            "country": "Germany",
            "region": "15562 Rüdersdorf (Berlin)",
            "category": "#shipping-and-mailing ",
            "description": "",
            "image": "https://lh3.googleusercontent.com/p/AF1QipNrjzVhICvEhZ1uxuPyyV2YqGywWE7Run-LjmdY=s0"
        },
        {
            "name": "DHL Osterather Str",
            "id": "",
            "lat": "50.962967",
            "lng": "6.934833",
            "country": "Germany",
            "region": "50739 Cologne",
            "category": "#sorting-and-distribution",
            "description": "",
            "image": "https://i.imgur.com/Z9pstbz.png"
        },
        {
            "name": "DHL Paketzentrum Neumark",
            "id": "",
            "lat": "50.667667",
            "lng": "12.362983",
            "country": "Germany",
            "region": "08496 Neumark",
            "category": "#shipping-and-mailing",
            "description": "",
            "image": "https://lh3.googleusercontent.com/p/AF1QipO6Q0fTr7QqSounFZtQ2MtfdwWSCBaBQlrDsReS=s0"
        },
        {
            "name": "DHL Trade Fairs & Events GmbH Eifeltor",
            "id": "",
            "lat": "50.885637",
            "lng": "6.922695",
            "country": "Germany",
            "region": "50997 Cologne",
            "category": "#freight-forwarding",
            "description": "",
            "image": "https://lh3.googleusercontent.com/p/AF1QipNGdXulsJUbfTRKk_X9GCQkWUh4atmpdBQ0uoJR=s0"
        },
        {
            "name": "Relais Colis Saint-Jacques-de-la-Lande",
            "id": "",
            "lat": "48.066306",
            "lng": "-1.704246",
            "country": "France",
            "region": "35136 Saint-Jacques-de-la-Lande",
            "category": "#sorting-and-distribution",
            "description": "",
            "image": "https://i.imgur.com/3vJhuzG.png"
        }
    ]
}